{
  "meta": {
    "generatedAt": "2026-06-25T02:38:32.805Z",
    "sources": [
      "경기도_이천시_어린이보호구역_20260122.csv",
      "경기도_이천시_노인장애인보호구역_20260522.csv",
      "전국주차장정보표준데이터.csv",
      "전국도시공원정보표준데이터.csv"
    ],
    "counts": {
      "protectionZones": 81,
      "parkingLots": 109,
      "parks": 44
    }
  },
  "protectionZones": [
    {
      "id": "child-1",
      "name": "나래초교",
      "subtype": "child",
      "facilityType": "초등학교",
      "lat": 37.16993358,
      "lng": 127.5877636,
      "roadWidth": null,
      "address": "경기도 이천시 장호원읍 이풍로63번길 114"
    },
    {
      "id": "child-2",
      "name": "대서초교",
      "subtype": "child",
      "facilityType": "초등학교",
      "lat": 37.11354416,
      "lng": 127.5759988,
      "roadWidth": null,
      "address": "경기도 이천시 장호원읍 서동대로8487번길 23-24"
    },
    {
      "id": "child-3",
      "name": "대월초교",
      "subtype": "child",
      "facilityType": "초등학교",
      "lat": 37.22373609,
      "lng": 127.4928014,
      "roadWidth": null,
      "address": "경기도 이천시 대월면 대평로178번길 48"
    },
    {
      "id": "child-4",
      "name": "도암초교",
      "subtype": "child",
      "facilityType": "초등학교",
      "lat": 37.31859142,
      "lng": 127.4427741,
      "roadWidth": null,
      "address": "경기도 이천시 신둔면 증신로 550"
    },
    {
      "id": "child-5",
      "name": "도지초교",
      "subtype": "child",
      "facilityType": "초등학교",
      "lat": 37.3084025,
      "lng": 127.4823129,
      "roadWidth": null,
      "address": "경기도 이천시 백사면 청백리로 207"
    },
    {
      "id": "child-6",
      "name": "마장초교",
      "subtype": "child",
      "facilityType": "초등학교",
      "lat": 37.24714546,
      "lng": 127.3581646,
      "roadWidth": null,
      "address": "경기도 이천시 마장면 오천로 130"
    },
    {
      "id": "child-7",
      "name": "백사초교",
      "subtype": "child",
      "facilityType": "초등학교",
      "lat": 37.33888982,
      "lng": 127.4905347,
      "roadWidth": null,
      "address": "경기도 이천시 백사면 현방로 55"
    },
    {
      "id": "child-8",
      "name": "부발초교",
      "subtype": "child",
      "facilityType": "초등학교",
      "lat": 37.28664819,
      "lng": 127.4887298,
      "roadWidth": null,
      "address": "경기도 이천시 부발읍 무촌로 155"
    },
    {
      "id": "child-9",
      "name": "설봉초교",
      "subtype": "child",
      "facilityType": "초등학교",
      "lat": 37.28477195,
      "lng": 127.4524415,
      "roadWidth": null,
      "address": "경기도 이천시 향교로 129"
    },
    {
      "id": "child-10",
      "name": "설성초교",
      "subtype": "child",
      "facilityType": "초등학교",
      "lat": 37.11011014,
      "lng": 127.5374462,
      "roadWidth": null,
      "address": "경기도 이천시 설성면 진상미로264번길 21-165"
    },
    {
      "id": "child-11",
      "name": "송곡초교",
      "subtype": "child",
      "facilityType": "초등학교",
      "lat": 37.15241874,
      "lng": 127.4839411,
      "roadWidth": null,
      "address": "경기도 이천시 모가면 진상미로 1054"
    },
    {
      "id": "child-12",
      "name": "신둔초교",
      "subtype": "child",
      "facilityType": "초등학교",
      "lat": 37.31028911,
      "lng": 127.4035246,
      "roadWidth": null,
      "address": "경기도 이천시 신둔면 경충대로3150번길 82-3"
    },
    {
      "id": "child-13",
      "name": "신하초교",
      "subtype": "child",
      "facilityType": "초등학교",
      "lat": 37.26109025,
      "lng": 127.4792851,
      "roadWidth": null,
      "address": "경기도 이천시 부발읍 경충대로2250번길 12"
    },
    {
      "id": "child-14",
      "name": "아미초교",
      "subtype": "child",
      "facilityType": "초등학교",
      "lat": 37.25822718,
      "lng": 127.4908672,
      "roadWidth": null,
      "address": "경기도 이천시 부발읍 신아로92번길 32"
    },
    {
      "id": "child-15",
      "name": "안흥초교",
      "subtype": "child",
      "facilityType": "초등학교",
      "lat": 37.28023162,
      "lng": 127.4560737,
      "roadWidth": null,
      "address": "경기도 이천시 영창로300번길 16 (안흥동)"
    },
    {
      "id": "child-16",
      "name": "율면초교",
      "subtype": "child",
      "facilityType": "초등학교",
      "lat": 37.08769894,
      "lng": 127.5425098,
      "roadWidth": null,
      "address": "경기도 이천시 율면 고당로 48"
    },
    {
      "id": "child-17",
      "name": "이천가산초교",
      "subtype": "child",
      "facilityType": "초등학교",
      "lat": 37.2416133,
      "lng": 127.5178592,
      "roadWidth": null,
      "address": "경기도 이천시 부발읍 황무로2065번길 112"
    },
    {
      "id": "child-18",
      "name": "이천남초교",
      "subtype": "child",
      "facilityType": "초등학교",
      "lat": 37.27696329,
      "lng": 127.443645,
      "roadWidth": null,
      "address": "경기도 이천시 경충대로2614번길 32 (중리동)"
    },
    {
      "id": "child-19",
      "name": "이천단월초교",
      "subtype": "child",
      "facilityType": "초등학교",
      "lat": 37.22700348,
      "lng": 127.4522059,
      "roadWidth": null,
      "address": "경기도 이천시 단월로 98 (단월동)"
    },
    {
      "id": "child-20",
      "name": "이천매곡초교",
      "subtype": "child",
      "facilityType": "초등학교",
      "lat": 37.21483214,
      "lng": 127.3944149,
      "roadWidth": null,
      "address": "경기도 이천시 호법면 이섭대천로96번길 8"
    },
    {
      "id": "child-21",
      "name": "이천사동초교",
      "subtype": "child",
      "facilityType": "초등학교",
      "lat": 37.24158694,
      "lng": 127.4874851,
      "roadWidth": null,
      "address": "경기도 이천시 대월면 경충대로2003번길 124-87"
    },
    {
      "id": "child-22",
      "name": "이천송정초교",
      "subtype": "child",
      "facilityType": "초등학교",
      "lat": 37.29418369,
      "lng": 127.4333763,
      "roadWidth": null,
      "address": "경기도 이천시 영창로45번길 165 (송정동)"
    },
    {
      "id": "child-23",
      "name": "이천초교",
      "subtype": "child",
      "facilityType": "초등학교",
      "lat": 37.28401159,
      "lng": 127.4422973,
      "roadWidth": null,
      "address": "경기도 이천시 서희로81번길 20 (창전동)"
    },
    {
      "id": "child-24",
      "name": "이황초교",
      "subtype": "child",
      "facilityType": "초등학교",
      "lat": 37.14560869,
      "lng": 127.5877192,
      "roadWidth": null,
      "address": "경기도 이천시 장호원읍 경충대로 456-20"
    },
    {
      "id": "child-25",
      "name": "장천초교",
      "subtype": "child",
      "facilityType": "초등학교",
      "lat": 37.14575495,
      "lng": 127.5283315,
      "roadWidth": null,
      "address": "경기도 이천시 설성면 설성로 165-25"
    },
    {
      "id": "child-26",
      "name": "장호원초교",
      "subtype": "child",
      "facilityType": "초등학교",
      "lat": 37.11558427,
      "lng": 127.6281309,
      "roadWidth": null,
      "address": "경기도 이천시 장호원읍 장감로 46"
    },
    {
      "id": "child-27",
      "name": "증포초교",
      "subtype": "child",
      "facilityType": "초등학교",
      "lat": 37.2941947,
      "lng": 127.4571713,
      "roadWidth": null,
      "address": "경기도 이천시 이섭대천로 1418"
    },
    {
      "id": "child-28",
      "name": "진가초교",
      "subtype": "child",
      "facilityType": "초등학교",
      "lat": 37.17474613,
      "lng": 127.4792165,
      "roadWidth": null,
      "address": "경기도 이천시 모가면 진상미로 1321-14"
    },
    {
      "id": "child-29",
      "name": "표교초교",
      "subtype": "child",
      "facilityType": "초등학교",
      "lat": 37.25672047,
      "lng": 127.4058426,
      "roadWidth": null,
      "address": "경기도 이천시 마장면 중부대로609번길 28-1"
    },
    {
      "id": "child-30",
      "name": "한내초교",
      "subtype": "child",
      "facilityType": "초등학교",
      "lat": 37.29041031,
      "lng": 127.4615308,
      "roadWidth": null,
      "address": "경기도 이천시 갈산로 71 (증포동)"
    },
    {
      "id": "child-31",
      "name": "호법초교",
      "subtype": "child",
      "facilityType": "초등학교",
      "lat": 37.22452827,
      "lng": 127.4264713,
      "roadWidth": null,
      "address": "경기도 이천시 호법면 이섭대천로537번길 8"
    },
    {
      "id": "child-32",
      "name": "나루유치원",
      "subtype": "child",
      "facilityType": "유치원",
      "lat": 37.24992428,
      "lng": 127.5166852,
      "roadWidth": null,
      "address": "경기도 이천시 부발읍 황무로 1911-79"
    },
    {
      "id": "child-33",
      "name": "이천유치원",
      "subtype": "child",
      "facilityType": "유치원",
      "lat": 37.29664683,
      "lng": 127.4411935,
      "roadWidth": null,
      "address": "경기도 이천시 증신로 290-6 (송정동)"
    },
    {
      "id": "child-34",
      "name": "장미유치원",
      "subtype": "child",
      "facilityType": "유치원",
      "lat": 37.11865142,
      "lng": 127.5814655,
      "roadWidth": null,
      "address": "경기도 이천시 장호원읍 서동대로8543번길 109"
    },
    {
      "id": "child-35",
      "name": "장호원유치원",
      "subtype": "child",
      "facilityType": "유치원",
      "lat": 37.11591071,
      "lng": 127.6287109,
      "roadWidth": null,
      "address": "경기도 이천시 장호원읍 장터로 35"
    },
    {
      "id": "child-36",
      "name": "지예슬유치원",
      "subtype": "child",
      "facilityType": "유치원",
      "lat": 37.29095522,
      "lng": 127.4535138,
      "roadWidth": null,
      "address": "경기도 이천시 증신로156번길 37 (증포동)"
    },
    {
      "id": "child-37",
      "name": "토마토유치원",
      "subtype": "child",
      "facilityType": "유치원",
      "lat": 37.26960166,
      "lng": 127.4905969,
      "roadWidth": null,
      "address": "경기도 이천시 부발읍 대산로 626-3"
    },
    {
      "id": "child-38",
      "name": "한울숲유치원",
      "subtype": "child",
      "facilityType": "유치원",
      "lat": 37.24087545,
      "lng": 127.4399765,
      "roadWidth": null,
      "address": "경기도 이천시 호법면 이섭대천로783번길 1"
    },
    {
      "id": "child-39",
      "name": "그린나래유치원",
      "subtype": "child",
      "facilityType": "유치원",
      "lat": 37.2809106,
      "lng": 127.4649016,
      "roadWidth": null,
      "address": "경기도 이천시 증신로 22-57 (갈산동)"
    },
    {
      "id": "child-40",
      "name": "이천은광유치원",
      "subtype": "child",
      "facilityType": "유치원",
      "lat": 37.28061307,
      "lng": 127.4644567,
      "roadWidth": null,
      "address": "경기도 이천시 증신로 22-60 (안흥동)"
    },
    {
      "id": "child-41",
      "name": "한마음유치원",
      "subtype": "child",
      "facilityType": "유치원",
      "lat": 37.3018951316,
      "lng": 127.469872,
      "roadWidth": null,
      "address": "경기도 이천시 백사면 청백리로 64-28"
    },
    {
      "id": "child-42",
      "name": "다원학교",
      "subtype": "child",
      "facilityType": "특수학교",
      "lat": 37.27843714,
      "lng": 127.4866533,
      "roadWidth": null,
      "address": "경기도 이천시 부발읍 부발중앙로46번길 21"
    },
    {
      "id": "child-43",
      "name": "산들어린이집",
      "subtype": "child",
      "facilityType": "어린이집",
      "lat": 37.29809968,
      "lng": 127.4473066,
      "roadWidth": null,
      "address": "경기도 이천시 증신로248번길 132-14 (송정동)"
    },
    {
      "id": "child-44",
      "name": "이천어린이집",
      "subtype": "child",
      "facilityType": "어린이집",
      "lat": 37.28229956,
      "lng": 127.4457799,
      "roadWidth": null,
      "address": "경기도 이천시 서희로82번길 46 (창전동)"
    },
    {
      "id": "child-45",
      "name": "큰별어린이집",
      "subtype": "child",
      "facilityType": "어린이집",
      "lat": 37.24932766,
      "lng": 127.3564861,
      "roadWidth": null,
      "address": "경기도 이천시 마장면 오천로 94"
    },
    {
      "id": "child-46",
      "name": "하이어린이집",
      "subtype": "child",
      "facilityType": "어린이집",
      "lat": 37.26250222,
      "lng": 127.4845404,
      "roadWidth": null,
      "address": "경기도 이천시 부발읍 대산로532번길 8-35"
    },
    {
      "id": "child-47",
      "name": "한슬어린이집",
      "subtype": "child",
      "facilityType": "어린이집",
      "lat": 37.24373857,
      "lng": 127.4921116,
      "roadWidth": null,
      "address": "경기도 이천시 대월면 경충대로2003번길 55"
    },
    {
      "id": "child-48",
      "name": "리틀킹어린이집",
      "subtype": "child",
      "facilityType": "어린이집",
      "lat": 37.29372041,
      "lng": 127.4408233,
      "roadWidth": null,
      "address": "경기도 이천시 증신로269번길 31 (송정동)"
    },
    {
      "id": "child-49",
      "name": "하버드어린이집",
      "subtype": "child",
      "facilityType": "어린이집",
      "lat": 37.29625164,
      "lng": 127.4381124,
      "roadWidth": null,
      "address": "경기도 이천시 증신로271번길 62 (송정동)"
    },
    {
      "id": "child-50",
      "name": "창조아트어린이집",
      "subtype": "child",
      "facilityType": "어린이집",
      "lat": 37.30159996,
      "lng": 127.4730532,
      "roadWidth": null,
      "address": "경기도 이천시 백사면 청백리로84번길 74"
    },
    {
      "id": "child-51",
      "name": "파란새싹어린이집",
      "subtype": "child",
      "facilityType": "어린이집",
      "lat": 37.28391686,
      "lng": 127.4875006,
      "roadWidth": null,
      "address": "경기도 이천시 부발읍 무촌로131번길 12"
    },
    {
      "id": "child-52",
      "name": "으뜸펀키즈어린이집",
      "subtype": "child",
      "facilityType": "어린이집",
      "lat": 37.28930873,
      "lng": 127.4559309,
      "roadWidth": null,
      "address": "경기도 이천시 갈산로 21 (증포동)"
    },
    {
      "id": "child-53",
      "name": "더자람어린이집",
      "subtype": "child",
      "facilityType": "어린이집",
      "lat": 37.2893912083,
      "lng": 127.4559309422,
      "roadWidth": null,
      "address": "경기도 이천시 갈산로 21 (증포동)"
    },
    {
      "id": "child-54",
      "name": "증포아이사랑어린이집",
      "subtype": "child",
      "facilityType": "어린이집",
      "lat": 37.2984477,
      "lng": 127.4498868,
      "roadWidth": null,
      "address": "경기도 이천시 황무로938번길 113 (증포동)"
    },
    {
      "id": "child-55",
      "name": "백사어린이집",
      "subtype": "child",
      "facilityType": "어린이집",
      "lat": 37.315392,
      "lng": 127.502416,
      "roadWidth": null,
      "address": "경기도 이천시 백사면 청백리로 413"
    },
    {
      "id": "elderly-1",
      "name": "노인아동복지회관",
      "subtype": "elderly",
      "facilityType": "2",
      "lat": 37.2782608,
      "lng": 127.4410593,
      "roadWidth": 7.5,
      "address": "경기도 이천시 남천로 31"
    },
    {
      "id": "elderly-2",
      "name": "이천시 배드민턴장",
      "subtype": "elderly",
      "facilityType": "2",
      "lat": 37.28758398,
      "lng": 127.4354075,
      "roadWidth": 7,
      "address": "경기도 이천시 설봉로81번길 49"
    },
    {
      "id": "elderly-3",
      "name": "관고3동 경로당",
      "subtype": "elderly",
      "facilityType": "2",
      "lat": 37.27921407,
      "lng": 127.4357111,
      "roadWidth": 6.5,
      "address": "경기도 이천시 경충대로2700번길 17"
    },
    {
      "id": "elderly-4",
      "name": "에이스 경로당",
      "subtype": "elderly",
      "facilityType": "2",
      "lat": 37.28120064,
      "lng": 127.4550492,
      "roadWidth": 15,
      "address": "경기도 이천시 영창로 293"
    },
    {
      "id": "elderly-5",
      "name": "대대리마을회관",
      "subtype": "elderly",
      "facilityType": "2",
      "lat": 37.2232219,
      "lng": 127.4769012,
      "roadWidth": 8,
      "address": "경기도 이천시 대월면 대산로15번길 10"
    },
    {
      "id": "elderly-6",
      "name": "한나그린힐 요양원",
      "subtype": "elderly",
      "facilityType": "2",
      "lat": 37.22260679,
      "lng": 127.4994433,
      "roadWidth": 6.5,
      "address": "경기도 이천시 대월면 대평로 214번길 10-11"
    },
    {
      "id": "elderly-7",
      "name": "소정리 마을회관",
      "subtype": "elderly",
      "facilityType": "2",
      "lat": 37.30238199,
      "lng": 127.3966389,
      "roadWidth": 6.5,
      "address": "경기도 이천시 신둔면 마소로 95번길 3"
    },
    {
      "id": "elderly-8",
      "name": "대흥1리 마을회관",
      "subtype": "elderly",
      "facilityType": "2",
      "lat": 37.23027705,
      "lng": 127.4768425,
      "roadWidth": 7.5,
      "address": "경기도 이천시 대월면 대산로 101번길 19-7"
    },
    {
      "id": "elderly-9",
      "name": "참사랑전문 요양원",
      "subtype": "elderly",
      "facilityType": "2",
      "lat": 37.29705121,
      "lng": 127.3816234,
      "roadWidth": 7,
      "address": "경기도 이천시 신둔면 황무로 338번길 197"
    },
    {
      "id": "elderly-10",
      "name": "엘리엘동산",
      "subtype": "elderly",
      "facilityType": "2",
      "lat": 37.27358852,
      "lng": 127.3872499,
      "roadWidth": 9,
      "address": "경기도 이천시 마장면 이장로 256"
    },
    {
      "id": "elderly-11",
      "name": "제요3리마을회관",
      "subtype": "elderly",
      "facilityType": "2",
      "lat": 37.10752809,
      "lng": 127.5570765,
      "roadWidth": 7.5,
      "address": "경기도 이천시 설성면 진상미로86번길 45-6"
    },
    {
      "id": "elderly-12",
      "name": "조읍1리 마을회관",
      "subtype": "elderly",
      "facilityType": "2",
      "lat": 37.31872264,
      "lng": 127.4834031,
      "roadWidth": 11,
      "address": "경기도 이천시 백사면 지읍로 102번길 2"
    },
    {
      "id": "elderly-13",
      "name": "신갈리 마을회관",
      "subtype": "elderly",
      "facilityType": "2",
      "lat": 37.20058959,
      "lng": 127.4477986,
      "roadWidth": 9,
      "address": "경기도 이천시 모가면 사실로1023번길 7-6"
    },
    {
      "id": "elderly-14",
      "name": "주라쉼터",
      "subtype": "elderly",
      "facilityType": "2",
      "lat": 37.281537,
      "lng": 127.5149227,
      "roadWidth": 7.5,
      "address": "경기도 이천시 부발읍 죽당로 227-19"
    },
    {
      "id": "elderly-15",
      "name": "동산2리 마을회관",
      "subtype": "elderly",
      "facilityType": "2",
      "lat": 37.2103311,
      "lng": 127.4085715,
      "roadWidth": 8.6,
      "address": "경기도 이천시 호법면 동산로 297"
    },
    {
      "id": "elderly-16",
      "name": "이황5리 마을회관",
      "subtype": "elderly",
      "facilityType": "2",
      "lat": 37.16152297,
      "lng": 127.5751926,
      "roadWidth": 7,
      "address": "경기도 이천시 장호원읍 이황리 408-4"
    },
    {
      "id": "elderly-17",
      "name": "본죽1리마을회관",
      "subtype": "elderly",
      "facilityType": "2",
      "lat": 37.078948,
      "lng": 127.526034,
      "roadWidth": 7,
      "address": "경기도 이천시 율면 주래본죽로 540"
    },
    {
      "id": "elderly-18",
      "name": "와현1리마을회관",
      "subtype": "elderly",
      "facilityType": "2",
      "lat": 37.15121312,
      "lng": 127.6040537,
      "roadWidth": 7,
      "address": "경기도 이천시 장호원읍 나래천로 160번길 183"
    },
    {
      "id": "elderly-19",
      "name": "풍계3리마을회관",
      "subtype": "elderly",
      "facilityType": "2",
      "lat": 37.148005,
      "lng": 127.615821,
      "roadWidth": 7,
      "address": "경기도 이천시 장호원읍 이풍로476번길 32"
    },
    {
      "id": "elderly-20",
      "name": "주박리마을회관",
      "subtype": "elderly",
      "facilityType": "1",
      "lat": 37.21084987,
      "lng": 127.420397,
      "roadWidth": 6.5,
      "address": "경기도 이천시 호법면 대덕산로 207번길 174-8"
    },
    {
      "id": "elderly-21",
      "name": "백우리마을회관",
      "subtype": "elderly",
      "facilityType": "1",
      "lat": 37.329668,
      "lng": 127.51599,
      "roadWidth": 6,
      "address": "경기도 이천시 백사면 청백리로691번길3"
    },
    {
      "id": "elderly-22",
      "name": "장동3리마을회관",
      "subtype": "elderly",
      "facilityType": "1",
      "lat": 37.326164,
      "lng": 127.451208,
      "roadWidth": 6.5,
      "address": "경기도 이천시 신둔면 원적로 561"
    },
    {
      "id": "elderly-23",
      "name": "대죽3리마을회관",
      "subtype": "elderly",
      "facilityType": "1",
      "lat": 37.13510025,
      "lng": 127.472605,
      "roadWidth": 6,
      "address": "경기도 이천시 설성면 원설로112번길 171"
    },
    {
      "id": "elderly-24",
      "name": "덕평1리마을회관",
      "subtype": "elderly",
      "facilityType": "1",
      "lat": 37.237519,
      "lng": 127.363219,
      "roadWidth": 3.5,
      "address": "경기도 이천시 마장면 덕평로891번길 12-9"
    },
    {
      "id": "elderly-25",
      "name": "송라리마을회관",
      "subtype": "elderly",
      "facilityType": "1",
      "lat": 37.199798,
      "lng": 127.5180688,
      "roadWidth": 7.5,
      "address": "경기도 이천시 대월면 다솔로 251-66"
    },
    {
      "id": "elderly-26",
      "name": "풍계2리마을회관",
      "subtype": "elderly",
      "facilityType": "1",
      "lat": 37.15335427,
      "lng": 127.6106667,
      "roadWidth": 7.5,
      "address": "경기도 이천시 장호원읍 이풍로 391"
    }
  ],
  "parkingLots": [
    {
      "id": "parking-1",
      "name": "창전동 임시 공영주차장",
      "lat": 37.28031803,
      "lng": 127.4456086,
      "spaces": 74,
      "type": "공영",
      "address": "경기도 이천시 어재연로 43"
    },
    {
      "id": "parking-2",
      "name": "사동리 제1공영주차장",
      "lat": 37.24353809,
      "lng": 127.4822116,
      "spaces": 41,
      "type": "공영",
      "address": "경기도 이천시 대산로208번길"
    },
    {
      "id": "parking-3",
      "name": "마장택지지구 공영주차장4",
      "lat": 37.24876924,
      "lng": 127.359607,
      "spaces": 41,
      "type": "공영",
      "address": "경기도 이천시 마장면 오천리 472-1"
    },
    {
      "id": "parking-4",
      "name": "마장택지지구 공영주차장3",
      "lat": 37.25575762,
      "lng": 127.3554156,
      "spaces": 29,
      "type": "공영",
      "address": "경기도 이천시 마장면 양촌리 372-6"
    },
    {
      "id": "parking-5",
      "name": "마장택지지구 공영주차장2",
      "lat": 37.25401905,
      "lng": 127.3529995,
      "spaces": 36,
      "type": "공영",
      "address": "경기도 이천시 오천로37"
    },
    {
      "id": "parking-6",
      "name": "마장택지지구 공영주차장1",
      "lat": 37.25471573,
      "lng": 127.3514483,
      "spaces": 32,
      "type": "공영",
      "address": "경기도 이천시 오천로 17"
    },
    {
      "id": "parking-7",
      "name": "신둔역사 임시주차장(후면)",
      "lat": 37.3162449,
      "lng": 127.4053705,
      "spaces": 114,
      "type": "공영",
      "address": "경기도 이천시 신둔면 남정리365-3"
    },
    {
      "id": "parking-8",
      "name": "신둔역사 임시주차장(정면)",
      "lat": 37.31460534,
      "lng": 127.4050368,
      "spaces": 50,
      "type": "공영",
      "address": "경기도 이천시 신둔면 수광리530-1"
    },
    {
      "id": "parking-9",
      "name": "부발역사 임시주차장",
      "lat": 37.26100735,
      "lng": 127.49163,
      "spaces": 193,
      "type": "공영",
      "address": "경기도 이천시 부발읍 아미리 1227"
    },
    {
      "id": "parking-10",
      "name": "서희역사관 노외주차장",
      "lat": 37.27844167,
      "lng": 127.4807621,
      "spaces": 182,
      "type": "공영",
      "address": "경기도 이천시 부발읍 마암리 123-5"
    },
    {
      "id": "parking-11",
      "name": "백사 산수유꽃축제 주차장",
      "lat": 37.34078051,
      "lng": 127.4622929,
      "spaces": 359,
      "type": "공영",
      "address": "경기도 이천시 백사면 원적로775번길 17"
    },
    {
      "id": "parking-12",
      "name": "이황리 환승주차장",
      "lat": 37.1621765,
      "lng": 127.5749962,
      "spaces": 21,
      "type": "공영",
      "address": "경기도 이천시 장호원읍 경충대로597번길 243"
    },
    {
      "id": "parking-13",
      "name": "고인돌주차장",
      "lat": 37.33214971,
      "lng": 127.4320672,
      "spaces": 61,
      "type": "공영",
      "address": "경기도 이천시 신둔면 석동로161번길 116"
    },
    {
      "id": "parking-14",
      "name": "장호원읍 오남리 재래시장 주차장",
      "lat": 37.11447968,
      "lng": 127.6301067,
      "spaces": 217,
      "type": "공영",
      "address": "경기도 이천시 장호원읍 서동대로8965번길 43-18"
    },
    {
      "id": "parking-15",
      "name": "사기막골공영노외주차장",
      "lat": 37.29387247,
      "lng": 127.412267,
      "spaces": 66,
      "type": "공영",
      "address": "경기도 이천시 경충대로2993번길 47"
    },
    {
      "id": "parking-16",
      "name": "오천리 공영주차장",
      "lat": 37.25390593,
      "lng": 127.3507883,
      "spaces": 26,
      "type": "공영",
      "address": "경기도 이천시 마장면 오천로24번길 11"
    },
    {
      "id": "parking-17",
      "name": "진가초등학교 노외주차장",
      "lat": 37.17357715,
      "lng": 127.4792739,
      "spaces": 2,
      "type": "공영",
      "address": "경기도 이천시 모가면 진가리 155-4"
    },
    {
      "id": "parking-18",
      "name": "설봉주차장 커피점 옆",
      "lat": 37.27888277,
      "lng": 127.4263171,
      "spaces": 30,
      "type": "공영",
      "address": "경기도 이천시 경충대로2709번길 152"
    },
    {
      "id": "parking-19",
      "name": "설봉주차장 심포니교",
      "lat": 37.2792279,
      "lng": 127.4253625,
      "spaces": 30,
      "type": "공영",
      "address": "경기도 이천시 관고동 380-1"
    },
    {
      "id": "parking-20",
      "name": "설봉공원주차장 제2주차장",
      "lat": 37.27593473,
      "lng": 127.4248596,
      "spaces": 172,
      "type": "공영",
      "address": "경기도 이천시 관고동 397-1"
    },
    {
      "id": "parking-21",
      "name": "설봉공원주차장 제1주차장",
      "lat": 37.2786849,
      "lng": 127.4279044,
      "spaces": 239,
      "type": "공영",
      "address": "경기도 이천시 관고동 355-2"
    },
    {
      "id": "parking-22",
      "name": "공설운동장공영주차장",
      "lat": 37.27651279,
      "lng": 127.4407936,
      "spaces": 466,
      "type": "공영",
      "address": "경기도 이천시 서희로 11(중리동)"
    },
    {
      "id": "parking-23",
      "name": "공설운동장주차장",
      "lat": 37.27651279,
      "lng": 127.4407936,
      "spaces": 466,
      "type": "공영",
      "address": "경기도 이천시 서희로 11"
    },
    {
      "id": "parking-24",
      "name": "설봉로노상주차장(3개소)(향교~관고동사무소)",
      "lat": 37.28437926,
      "lng": 127.4385292,
      "spaces": 32,
      "type": "공영",
      "address": "경기도 이천시 설봉로 87"
    },
    {
      "id": "parking-25",
      "name": "창전사거리노상주차장(2개소)(일신주유소~설봉중)",
      "lat": 37.28479878,
      "lng": 127.4487609,
      "spaces": 18,
      "type": "공영",
      "address": "경기도 이천시 향교로 95-10"
    },
    {
      "id": "parking-26",
      "name": "향교로노상주차장(8개소)(향교~일신주유소)",
      "lat": 37.28475923,
      "lng": 127.4412476,
      "spaces": 81,
      "type": "공영",
      "address": "경기도 이천시 향교로 36"
    },
    {
      "id": "parking-27",
      "name": "교육청앞노상주차장(1개소)",
      "lat": 37.28661994,
      "lng": 127.4495493,
      "spaces": 11,
      "type": "공영",
      "address": "경기도 이천시 이섭대천로1311번길 7"
    },
    {
      "id": "parking-28",
      "name": "망현산길노상주차장(3개소)",
      "lat": 37.28599691,
      "lng": 127.4436384,
      "spaces": 118,
      "type": "공영",
      "address": "경기도 이천시 설봉로 152"
    },
    {
      "id": "parking-29",
      "name": "실버 중앙사거리",
      "lat": 37.28160598,
      "lng": 127.4427617,
      "spaces": 23,
      "type": "공영",
      "address": "경기도 이천시 영창로 181"
    },
    {
      "id": "parking-30",
      "name": "새설봉사거리",
      "lat": 37.27842061,
      "lng": 127.437767,
      "spaces": 23,
      "type": "공영",
      "address": "경기도 이천시 남천로 1"
    },
    {
      "id": "parking-31",
      "name": "설봉공원입구",
      "lat": 37.27943902,
      "lng": 127.437439,
      "spaces": 27,
      "type": "공영",
      "address": "경기도 이천시 설봉로 33"
    },
    {
      "id": "parking-32",
      "name": "농협하나로마트앞",
      "lat": 37.28115706,
      "lng": 127.4486167,
      "spaces": 8,
      "type": "공영",
      "address": "경기도 이천시 영창로 235"
    },
    {
      "id": "parking-33",
      "name": "11-2 공설운동장뒤",
      "lat": 37.27781916,
      "lng": 127.4390824,
      "spaces": 11,
      "type": "공영",
      "address": "경기도 이천시 남천로16"
    },
    {
      "id": "parking-34",
      "name": "공설운동장옆2",
      "lat": 37.27781736,
      "lng": 127.4390872,
      "spaces": 11,
      "type": "공영",
      "address": "경기도 이천시 남천로16"
    },
    {
      "id": "parking-35",
      "name": "11-1 공설운동장앞",
      "lat": 37.27794324,
      "lng": 127.438478,
      "spaces": 11,
      "type": "공영",
      "address": "경기도 이천시 남천로10"
    },
    {
      "id": "parking-36",
      "name": "서희동상오거리 노상주차장",
      "lat": 37.27756973,
      "lng": 127.441596,
      "spaces": 24,
      "type": "공영",
      "address": "경기도 이천시 중리동 236"
    },
    {
      "id": "parking-37",
      "name": "남천로 노상주차장",
      "lat": 37.27756973,
      "lng": 127.441596,
      "spaces": 29,
      "type": "공영",
      "address": "경기도 이천시 중리동 236"
    },
    {
      "id": "parking-38",
      "name": "설봉공원삼거리~양정여고앞노상주차장(3개소)",
      "lat": 37.28240372,
      "lng": 127.4357444,
      "spaces": 12,
      "type": "공영",
      "address": "경기도 이천시 영창로124번길 16-13"
    },
    {
      "id": "parking-39",
      "name": "시민회관사거리~온천사거리노상주차장(3개소)",
      "lat": 37.28043727,
      "lng": 127.4517644,
      "spaces": 20,
      "type": "공영",
      "address": "경기도 이천시 영창로 260"
    },
    {
      "id": "parking-40",
      "name": "애련정로노상주차장(3개소)(설봉중사거리~구시민회관사거리)",
      "lat": 37.28131103,
      "lng": 127.4503312,
      "spaces": 27,
      "type": "공영",
      "address": "경기도 이천시 애련정로 122"
    },
    {
      "id": "parking-41",
      "name": "서희로노상주차장(2개소)(중앙사거리~구샛별슈퍼)",
      "lat": 37.28204705,
      "lng": 127.4433705,
      "spaces": 31,
      "type": "공영",
      "address": "경기도 이천시 서희로 74"
    },
    {
      "id": "parking-42",
      "name": "남천상가공영주차장",
      "lat": 37.27801111,
      "lng": 127.4444343,
      "spaces": 224,
      "type": "공영",
      "address": "경기도 이천시 어재연로10번길 25"
    },
    {
      "id": "parking-43",
      "name": "남천상가주차장",
      "lat": 37.27801111,
      "lng": 127.4444343,
      "spaces": 224,
      "type": "공영",
      "address": "경기도 이천시 어재연로10번길 25"
    },
    {
      "id": "parking-44",
      "name": "택시쉼터공영주차장",
      "lat": 37.28628212,
      "lng": 127.4402875,
      "spaces": 230,
      "type": "공영",
      "address": "경기도 이천시 설봉로 122"
    },
    {
      "id": "parking-45",
      "name": "서희청소년공영주차장",
      "lat": 37.28043727,
      "lng": 127.4517644,
      "spaces": 196,
      "type": "공영",
      "address": "경기도 이천시 영창로 260"
    },
    {
      "id": "parking-46",
      "name": "서희청소년문화센터공영주차장",
      "lat": 37.28043727,
      "lng": 127.4517644,
      "spaces": 195,
      "type": "공영",
      "address": "경기도 이천시 영창로 260"
    },
    {
      "id": "parking-47",
      "name": "북샛말공영주차장",
      "lat": 37.28615075,
      "lng": 127.4484666,
      "spaces": 177,
      "type": "공영",
      "address": "경기도 이천시 이섭대천로 1299"
    },
    {
      "id": "parking-48",
      "name": "중리천로공영주차장",
      "lat": 37.28027975,
      "lng": 127.4422212,
      "spaces": 34,
      "type": "공영",
      "address": "경기도 이천시 중리천로 38"
    },
    {
      "id": "parking-49",
      "name": "신둔도예촌역 노상주차장",
      "lat": 37.27813196,
      "lng": 127.445788,
      "spaces": 59,
      "type": "공영",
      "address": "경기도 이천시 중리동 241"
    },
    {
      "id": "parking-50",
      "name": "라온팰리스 앞 노상주차장",
      "lat": 37.27813196,
      "lng": 127.445788,
      "spaces": 10,
      "type": "공영",
      "address": "경기도 이천시 중리동 241"
    },
    {
      "id": "parking-51",
      "name": "부발 마암 노상주차장",
      "lat": 37.28181306,
      "lng": 127.4829539,
      "spaces": 13,
      "type": "공영",
      "address": "경기도 이천시 부발읍 마암리 산45"
    },
    {
      "id": "parking-52",
      "name": "이천고앞노상주차장(1개소)",
      "lat": 37.28681775,
      "lng": 127.4483759,
      "spaces": 24,
      "type": "공영",
      "address": "경기도 이천시 아리역로16번길 20"
    },
    {
      "id": "parking-53",
      "name": "장호원노상주차장(11개소)",
      "lat": 37.11728259,
      "lng": 127.6305842,
      "spaces": 657,
      "type": "공영",
      "address": "경기도 이천시 장호원읍 장감로 71"
    },
    {
      "id": "parking-54",
      "name": "백사노상주차장(2개소)(백사면사무소 앞)",
      "lat": 37.33951528,
      "lng": 127.4920072,
      "spaces": 30,
      "type": "공영",
      "address": "경기도 이천시 백사면 현방로 76"
    },
    {
      "id": "parking-55",
      "name": "공설운동장옆1",
      "lat": 37.27794324,
      "lng": 127.438478,
      "spaces": 11,
      "type": "공영",
      "address": "경기도 이천시 남천로10"
    },
    {
      "id": "parking-56",
      "name": "10-2 새설봉사거리",
      "lat": 37.27842061,
      "lng": 127.437767,
      "spaces": 23,
      "type": "공영",
      "address": "경기도 이천시 남천로 1"
    },
    {
      "id": "parking-57",
      "name": "10-1 설봉공원입구",
      "lat": 37.27943902,
      "lng": 127.437439,
      "spaces": 25,
      "type": "공영",
      "address": "경기도 이천시 설봉로 33"
    },
    {
      "id": "parking-58",
      "name": "8-8 푸주옥앞",
      "lat": 37.27557498,
      "lng": 127.4494494,
      "spaces": 23,
      "type": "공영",
      "address": "경기도 이천시 중리천로 129-6"
    },
    {
      "id": "parking-59",
      "name": "sk주유소 앞",
      "lat": 37.27480164,
      "lng": 127.4496347,
      "spaces": 23,
      "type": "공영",
      "address": "경기도 이천시 중리동 435"
    },
    {
      "id": "parking-60",
      "name": "8-7 청솔공원앞",
      "lat": 37.27557775,
      "lng": 127.4494552,
      "spaces": 21,
      "type": "공영",
      "address": "경기도 이천시 중리천로 129-6"
    },
    {
      "id": "parking-61",
      "name": "청솔공원앞",
      "lat": 37.27557775,
      "lng": 127.4494552,
      "spaces": 28,
      "type": "공영",
      "address": "경기도 이천시 중리천로 129-6"
    },
    {
      "id": "parking-62",
      "name": "파티마병원뒤",
      "lat": 37.27519936,
      "lng": 127.4499066,
      "spaces": 29,
      "type": "공영",
      "address": "경기도 이천시 중리천로 137"
    },
    {
      "id": "parking-63",
      "name": "8-6 파티마병원뒤",
      "lat": 37.27519936,
      "lng": 127.4499066,
      "spaces": 22,
      "type": "공영",
      "address": "경기도 이천시 중리천로 137"
    },
    {
      "id": "parking-64",
      "name": "8-5 기아오토랜드앞",
      "lat": 37.27605544,
      "lng": 127.4493308,
      "spaces": 25,
      "type": "공영",
      "address": "경기도 이천시 중리천로 125"
    },
    {
      "id": "parking-65",
      "name": "기아오토랜드앞",
      "lat": 37.27605544,
      "lng": 127.4493308,
      "spaces": 32,
      "type": "공영",
      "address": "경기도 이천시 중리천로 125"
    },
    {
      "id": "parking-66",
      "name": "8-4 안흥지건너편",
      "lat": 37.2768395,
      "lng": 127.4489467,
      "spaces": 17,
      "type": "공영",
      "address": "경기도 이천시 중리천로 116"
    },
    {
      "id": "parking-67",
      "name": "안흥지건너편",
      "lat": 37.2768395,
      "lng": 127.4489467,
      "spaces": 17,
      "type": "공영",
      "address": "경기도 이천시 중리천로 116"
    },
    {
      "id": "parking-68",
      "name": "8-3 터미널뒤",
      "lat": 37.27685693,
      "lng": 127.4475931,
      "spaces": 17,
      "type": "공영",
      "address": "경기도 이천시 중리천로 96-23"
    },
    {
      "id": "parking-69",
      "name": "터미널뒤",
      "lat": 37.27685693,
      "lng": 127.4475931,
      "spaces": 17,
      "type": "공영",
      "address": "경기도 이천시 중리천로 96-23"
    },
    {
      "id": "parking-70",
      "name": "8-2 터미널공영",
      "lat": 37.27756929,
      "lng": 127.4481679,
      "spaces": 45,
      "type": "공영",
      "address": "경기도 이천시 중리천로 102"
    },
    {
      "id": "parking-71",
      "name": "터미널공영",
      "lat": 37.27756929,
      "lng": 127.4481679,
      "spaces": 45,
      "type": "공영",
      "address": "경기도 이천시 중리천로 102"
    },
    {
      "id": "parking-72",
      "name": "7-2 남천공원입구",
      "lat": 37.27843235,
      "lng": 127.4431927,
      "spaces": 24,
      "type": "공영",
      "address": "경기도 이천시 어재연로 13"
    },
    {
      "id": "parking-73",
      "name": "남천공원입구",
      "lat": 37.27843235,
      "lng": 127.4431927,
      "spaces": 25,
      "type": "공영",
      "address": "경기도 이천시 어재연로 13"
    },
    {
      "id": "parking-74",
      "name": "7-1 명동타운옆",
      "lat": 37.27888364,
      "lng": 127.444422,
      "spaces": 19,
      "type": "공영",
      "address": "경기도 이천시 어재연로 24"
    },
    {
      "id": "parking-75",
      "name": "명동타운옆",
      "lat": 37.27888364,
      "lng": 127.444422,
      "spaces": 19,
      "type": "공영",
      "address": "경기도 이천시 어재연로 24"
    },
    {
      "id": "parking-76",
      "name": "6-2 중리동주민센터앞",
      "lat": 37.27865716,
      "lng": 127.4420758,
      "spaces": 24,
      "type": "공영",
      "address": "경기도 이천시 서희로 33"
    },
    {
      "id": "parking-77",
      "name": "중리동주민센터앞",
      "lat": 37.27865716,
      "lng": 127.4420758,
      "spaces": 24,
      "type": "공영",
      "address": "경기도 이천시 서희로 33"
    },
    {
      "id": "parking-78",
      "name": "6-1 중리동주민센터아래",
      "lat": 37.2793013,
      "lng": 127.4426281,
      "spaces": 28,
      "type": "공영",
      "address": "경기도 이천시 서희로 42"
    },
    {
      "id": "parking-79",
      "name": "중리동주민센터아래",
      "lat": 37.2793013,
      "lng": 127.4426281,
      "spaces": 28,
      "type": "공영",
      "address": "경기도 이천시 서희로 42"
    },
    {
      "id": "parking-80",
      "name": "5-2 관고사거리(구.세무서)",
      "lat": 37.28176525,
      "lng": 127.4386215,
      "spaces": 18,
      "type": "공영",
      "address": "경기도 이천시 설봉로 62"
    },
    {
      "id": "parking-81",
      "name": "관고사거리(구.세무서)",
      "lat": 37.28176525,
      "lng": 127.4386215,
      "spaces": 22,
      "type": "공영",
      "address": "경기도 이천시 설봉로 62"
    },
    {
      "id": "parking-82",
      "name": "5-1 관고2통보호수앞",
      "lat": 37.2808006,
      "lng": 127.4383177,
      "spaces": 24,
      "type": "공영",
      "address": "경기도 이천시 설봉로 48"
    },
    {
      "id": "parking-83",
      "name": "관고2통보호수앞",
      "lat": 37.2808006,
      "lng": 127.4383177,
      "spaces": 25,
      "type": "공영",
      "address": "경기도 이천시 설봉로 48"
    },
    {
      "id": "parking-84",
      "name": "4-4 라온팰리스맞은편",
      "lat": 37.27866825,
      "lng": 127.4465036,
      "spaces": 12,
      "type": "공영",
      "address": "경기도 이천시 중리천로 81"
    },
    {
      "id": "parking-85",
      "name": "라온팰리스맞은편",
      "lat": 37.27866825,
      "lng": 127.4465036,
      "spaces": 12,
      "type": "공영",
      "address": "경기도 이천시 중리천로 81"
    },
    {
      "id": "parking-86",
      "name": "4-3 새마을금고앞",
      "lat": 37.27947903,
      "lng": 127.4454255,
      "spaces": 18,
      "type": "공영",
      "address": "경기도 이천시 중리천로 67"
    },
    {
      "id": "parking-87",
      "name": "새마을금고앞",
      "lat": 37.27947903,
      "lng": 127.4454255,
      "spaces": 18,
      "type": "공영",
      "address": "경기도 이천시 중리천로 67"
    },
    {
      "id": "parking-88",
      "name": "4-2 산림조합앞",
      "lat": 37.27938894,
      "lng": 127.4455383,
      "spaces": 18,
      "type": "공영",
      "address": "경기도 이천시 중리천로 71"
    },
    {
      "id": "parking-89",
      "name": "산림조합앞",
      "lat": 37.27938894,
      "lng": 127.4455383,
      "spaces": 18,
      "type": "공영",
      "address": "경기도 이천시 중리천로 71"
    },
    {
      "id": "parking-90",
      "name": "3-3 CGV앞",
      "lat": 37.27964972,
      "lng": 127.4441958,
      "spaces": 23,
      "type": "공영",
      "address": "경기도 이천시 중리천로 58"
    },
    {
      "id": "parking-91",
      "name": "CGV맞은편",
      "lat": 37.28020864,
      "lng": 127.4442969,
      "spaces": 24,
      "type": "공영",
      "address": "경기도 이천시 중리천로 57"
    },
    {
      "id": "parking-92",
      "name": "세람저축은행맞은편",
      "lat": 37.28047876,
      "lng": 127.443665,
      "spaces": 17,
      "type": "공영",
      "address": "경기도 이천시 중리천로 51"
    },
    {
      "id": "parking-93",
      "name": "3-2 세람저축은행맞은편",
      "lat": 37.28047876,
      "lng": 127.443665,
      "spaces": 19,
      "type": "공영",
      "address": "경기도 이천시 중리천로 51"
    },
    {
      "id": "parking-94",
      "name": "3-1 세람저축은행앞",
      "lat": 37.27992766,
      "lng": 127.4432662,
      "spaces": 17,
      "type": "공영",
      "address": "경기도 이천시 중리천로 50"
    },
    {
      "id": "parking-95",
      "name": "세람저축은행앞",
      "lat": 37.27992766,
      "lng": 127.4432662,
      "spaces": 17,
      "type": "공영",
      "address": "경기도 이천시 중리천로 50"
    },
    {
      "id": "parking-96",
      "name": "2-4 주차장사무실맞은편",
      "lat": 37.28064923,
      "lng": 127.4420179,
      "spaces": 22,
      "type": "공영",
      "address": "경기도 이천시 중리천로 35"
    },
    {
      "id": "parking-97",
      "name": "주차장사무실맞은편",
      "lat": 37.28064923,
      "lng": 127.4420179,
      "spaces": 22,
      "type": "공영",
      "address": "경기도 이천시 중리천로 35"
    },
    {
      "id": "parking-98",
      "name": "2-3 주차장사무실앞",
      "lat": 37.28027975,
      "lng": 127.4422212,
      "spaces": 14,
      "type": "공영",
      "address": "경기도 이천시 중리천로 38"
    },
    {
      "id": "parking-99",
      "name": "주차장사무실앞",
      "lat": 37.28027975,
      "lng": 127.4422212,
      "spaces": 16,
      "type": "공영",
      "address": "경기도 이천시 중리천로 38"
    },
    {
      "id": "parking-100",
      "name": "2-2 이천성당앞",
      "lat": 37.28006286,
      "lng": 127.4410821,
      "spaces": 24,
      "type": "공영",
      "address": "경기도 이천시 중리천로 32"
    },
    {
      "id": "parking-101",
      "name": "이천성당앞",
      "lat": 37.28006286,
      "lng": 127.4410821,
      "spaces": 24,
      "type": "공영",
      "address": "경기도 이천시 중리천로 32"
    },
    {
      "id": "parking-102",
      "name": "2-1 관고전통시장입구앞",
      "lat": 37.28059448,
      "lng": 127.4406755,
      "spaces": 17,
      "type": "공영",
      "address": "경기도 이천시 중리천로 23"
    },
    {
      "id": "parking-103",
      "name": "관고전통시장입구앞",
      "lat": 37.28059448,
      "lng": 127.4406755,
      "spaces": 17,
      "type": "공영",
      "address": "경기도 이천시 중리천로 23"
    },
    {
      "id": "parking-104",
      "name": "1-3 한아름공원앞(이마트)",
      "lat": 37.2799811,
      "lng": 127.43983,
      "spaces": 19,
      "type": "공영",
      "address": "경기도 이천시 중리천로 18"
    },
    {
      "id": "parking-105",
      "name": "한아름공원앞(이마트)",
      "lat": 37.2799811,
      "lng": 127.43983,
      "spaces": 21,
      "type": "공영",
      "address": "경기도 이천시 중리천로 18"
    },
    {
      "id": "parking-106",
      "name": "1-2 은혜예식장뒤",
      "lat": 37.28021515,
      "lng": 127.4392207,
      "spaces": 23,
      "type": "공영",
      "address": "경기도 이천시 중리천로 12"
    },
    {
      "id": "parking-107",
      "name": "은혜예식장뒤",
      "lat": 37.28021515,
      "lng": 127.4392207,
      "spaces": 24,
      "type": "공영",
      "address": "경기도 이천시 중리천로 12"
    },
    {
      "id": "parking-108",
      "name": "1-1 관고교앞",
      "lat": 37.28046699,
      "lng": 127.4381488,
      "spaces": 20,
      "type": "공영",
      "address": "경기도 이천시 설봉로 46"
    },
    {
      "id": "parking-109",
      "name": "관고교앞",
      "lat": 37.28046699,
      "lng": 127.4381488,
      "spaces": 20,
      "type": "공영",
      "address": "경기도 이천시 설봉로 46"
    }
  ],
  "parks": [
    {
      "id": "park-1",
      "name": "동새말공원",
      "lat": 37.2822743,
      "lng": 127.4491159,
      "category": "어린이공원",
      "area": 1300,
      "address": "경기도 이천시 애련정로 135번길 23-13"
    },
    {
      "id": "park-2",
      "name": "북새말공원",
      "lat": 37.2854015,
      "lng": 127.4494321,
      "category": "어린이공원",
      "area": 1650,
      "address": "경기도 이천시 창전동 446"
    },
    {
      "id": "park-3",
      "name": "태극공원",
      "lat": 37.2841229,
      "lng": 127.4454011,
      "category": "어린이공원",
      "area": 1200,
      "address": "경기도 이천시 서희로96번길 23(창전동)"
    },
    {
      "id": "park-4",
      "name": "체육공원",
      "lat": 37.2859688,
      "lng": 127.4459699,
      "category": "어린이공원",
      "area": 1300,
      "address": "경기도 이천시 설봉로 174(창전동)"
    },
    {
      "id": "park-5",
      "name": "달맞이공원",
      "lat": 37.2858539,
      "lng": 127.4432146,
      "category": "어린이공원",
      "area": 1650,
      "address": "경기도 이천시 향교로 53번길 23"
    },
    {
      "id": "park-6",
      "name": "개나리공원",
      "lat": 37.2838603,
      "lng": 127.4394771,
      "category": "어린이공원",
      "area": 1650,
      "address": "경기도 이천시 창전동 414-13"
    },
    {
      "id": "park-7",
      "name": "향교공원",
      "lat": 37.2849017,
      "lng": 127.4375887,
      "category": "어린이공원",
      "area": 1757,
      "address": "경기도 이천시 설봉로 81번길 34"
    },
    {
      "id": "park-8",
      "name": "남천공원",
      "lat": 37.2780103,
      "lng": 127.444436,
      "category": "어린이공원",
      "area": 3830,
      "address": "경기도 이천시 어재연로 10번길 25"
    },
    {
      "id": "park-9",
      "name": "꿈나무공원",
      "lat": 37.2785611,
      "lng": 127.4388194,
      "category": "어린이공원",
      "area": 2526,
      "address": "경기도 이천시 설봉로 30번길 22"
    },
    {
      "id": "park-10",
      "name": "한아름공원",
      "lat": 37.2807419,
      "lng": 127.4396981,
      "category": "어린이공원",
      "area": 1297,
      "address": "경기도 이천시 중리천로 15"
    },
    {
      "id": "park-11",
      "name": "희망공원",
      "lat": 37.2820958,
      "lng": 127.4361472,
      "category": "어린이공원",
      "area": 683,
      "address": "경기도 이천시 설봉로 43번길 49"
    },
    {
      "id": "park-12",
      "name": "이수흥공원",
      "lat": 37.2824765,
      "lng": 127.4420405,
      "category": "어린이공원",
      "area": 1902,
      "address": "경기도 이천시 창전동 76"
    },
    {
      "id": "park-13",
      "name": "심포니공원",
      "lat": 37.2822978,
      "lng": 127.4457782,
      "category": "어린이공원",
      "area": 2947,
      "address": "경기도 이천시 서희로 82번길 46"
    },
    {
      "id": "park-14",
      "name": "수변공원",
      "lat": 37.2681203,
      "lng": 127.4605268,
      "category": "수변공원",
      "area": 12040,
      "address": "경기도 이천시 경충대로 2422번길 17"
    },
    {
      "id": "park-15",
      "name": "온천공원",
      "lat": 37.28219691,
      "lng": 127.4523174,
      "category": "근린공원",
      "area": 114600,
      "address": "경기도 이천시 애련정로136번길 84"
    },
    {
      "id": "park-16",
      "name": "설봉공원",
      "lat": 37.2794565,
      "lng": 127.4275533,
      "category": "근린공원",
      "area": 1644940,
      "address": "경기도 이천시 경충대로 2709번길 128"
    },
    {
      "id": "park-17",
      "name": "효양공원(서희테마파크)",
      "lat": 37.2728276441,
      "lng": 127.4846865359,
      "category": "근린공원",
      "area": 142467,
      "address": "경기도 이천시 부발읍 산촌리 산21"
    },
    {
      "id": "park-18",
      "name": "신원지구공원",
      "lat": 37.2965885231,
      "lng": 127.5069818053,
      "category": "어린이공원",
      "area": 21552,
      "address": "경기도 이천시 부발읍 신원리 569-4"
    },
    {
      "id": "park-19",
      "name": "복하천제4수변공원",
      "lat": 37.2746644684,
      "lng": 127.465747,
      "category": "수변공원",
      "area": 58081,
      "address": "경기도 이천시 안흥동 40"
    },
    {
      "id": "park-20",
      "name": "복하천제2수변공원",
      "lat": 37.2681206788,
      "lng": 127.4605276355,
      "category": "수변공원",
      "area": 12785,
      "address": "경기도 이천시 경충대로2422번길 17"
    },
    {
      "id": "park-21",
      "name": "설봉아랫마을문화공원",
      "lat": 37.278645,
      "lng": 127.432927,
      "category": "문화공원",
      "area": 1732.6,
      "address": "경기도 이천시 관고동 246-7"
    },
    {
      "id": "park-22",
      "name": "한양수자인문화공원",
      "lat": 37.2903066056,
      "lng": 127.4472294054,
      "category": "문화공원",
      "area": 7162.1,
      "address": "경기도 이천시 증포동 493"
    },
    {
      "id": "park-23",
      "name": "롯데캐슬1차소공원",
      "lat": 37.2750099183,
      "lng": 127.454094,
      "category": "소공원",
      "area": 644,
      "address": "경기도 이천시 안흥동 274-1"
    },
    {
      "id": "park-24",
      "name": "증포센트럴숲공원",
      "lat": 37.2881255244,
      "lng": 127.458503,
      "category": "소공원",
      "area": 7043.4,
      "address": "경기도 이천시 증포동 488"
    },
    {
      "id": "park-25",
      "name": "장미공원",
      "lat": 37.2758452,
      "lng": 127.4451223,
      "category": "어린이공원",
      "area": 1650,
      "address": "경기도 이천시 이섭대천로 1177번길 36"
    },
    {
      "id": "park-26",
      "name": "청솔공원",
      "lat": 37.2755183,
      "lng": 127.4486608,
      "category": "어린이공원",
      "area": 1650,
      "address": "경기도 이천시 중리동 465-6"
    },
    {
      "id": "park-27",
      "name": "샛별공원",
      "lat": 37.2795137,
      "lng": 127.4490814,
      "category": "어린이공원",
      "area": 1650,
      "address": "경기도 이천시 애련정로 103번길 19"
    },
    {
      "id": "park-28",
      "name": "KCC정문소공원",
      "lat": 37.2877591169,
      "lng": 127.450666,
      "category": "소공원",
      "area": 3854,
      "address": "경기도 이천시 증포동 산46-9"
    },
    {
      "id": "park-29",
      "name": "증포제2어린이공원",
      "lat": 37.296659,
      "lng": 127.4568135464,
      "category": "어린이공원",
      "area": 2214.1,
      "address": "경기도 이천시 증포동 482"
    },
    {
      "id": "park-30",
      "name": "송정제2어린이공원라온프라이빗",
      "lat": 37.2991290503,
      "lng": 127.437134,
      "category": "어린이공원",
      "area": 6335,
      "address": "경기도 이천시 송정동 453"
    },
    {
      "id": "park-31",
      "name": "48호어린이공원",
      "lat": 37.29239137,
      "lng": 127.4453949,
      "category": "어린이공원",
      "area": 2791,
      "address": "경기도 이천시 송정동 455"
    },
    {
      "id": "park-32",
      "name": "마장근린공원",
      "lat": 37.2535668451,
      "lng": 127.3547039279,
      "category": "근린공원",
      "area": 15317,
      "address": "경기도 이천시 마장면 마장로 11"
    },
    {
      "id": "park-33",
      "name": "진암공원",
      "lat": 37.1101735631,
      "lng": 127.6189887763,
      "category": "근린공원",
      "area": 177579,
      "address": "경기도 이천시 장호원읍 진암리 100-1"
    },
    {
      "id": "park-34",
      "name": "갈산제2공원",
      "lat": 37.28095085,
      "lng": 127.4587268,
      "category": "어린이공원",
      "area": 2100,
      "address": "경기도 이천시 갈산동 779"
    },
    {
      "id": "park-35",
      "name": "푸르지오공원",
      "lat": 37.28527841,
      "lng": 127.4516502,
      "category": "어린이공원",
      "area": 3179,
      "address": "경기도 이천시 증포동 481"
    },
    {
      "id": "park-36",
      "name": "휴먼시아공원",
      "lat": 37.2821735,
      "lng": 127.4575724,
      "category": "어린이공원",
      "area": 2100,
      "address": "경기도 이천시 갈산동 786"
    },
    {
      "id": "park-37",
      "name": "관고제6공원",
      "lat": 37.2832654,
      "lng": 127.4336145,
      "category": "어린이공원",
      "area": 1830,
      "address": "경기도 이천시 관고동 512"
    },
    {
      "id": "park-38",
      "name": "증포제3공원",
      "lat": 37.28941811,
      "lng": 127.4497003,
      "category": "어린이공원",
      "area": 2250,
      "address": "경기도 이천시 이섭대천로 1325-1(증포동)"
    },
    {
      "id": "park-39",
      "name": "증포제2공원",
      "lat": 37.283321,
      "lng": 127.4553421,
      "category": "어린이공원",
      "area": 1872,
      "address": "경기도 이천시 갈산동 611-4"
    },
    {
      "id": "park-40",
      "name": "송정공원",
      "lat": 37.2969501,
      "lng": 127.4327276,
      "category": "어린이공원",
      "area": 1537,
      "address": "경기도 이천시 송정동 293-4"
    },
    {
      "id": "park-41",
      "name": "증포제1공원",
      "lat": 37.29629085,
      "lng": 127.4530205,
      "category": "어린이공원",
      "area": 3865,
      "address": "경기도 이천시 증포동 475-3"
    },
    {
      "id": "park-42",
      "name": "갈산제1공원",
      "lat": 37.28395378,
      "lng": 127.4556812,
      "category": "어린이공원",
      "area": 1580,
      "address": "경기도 이천시 갈산동 639-1"
    },
    {
      "id": "park-43",
      "name": "마전터공원",
      "lat": 37.2841272,
      "lng": 127.4345441,
      "category": "어린이공원",
      "area": 1000,
      "address": "경기도 이천시 영창로 99"
    },
    {
      "id": "park-44",
      "name": "한마음공원",
      "lat": 37.2767548,
      "lng": 127.4380016,
      "category": "어린이공원",
      "area": 1650,
      "address": "경기도 이천시 경충대로 2652번길 13"
    }
  ],
  "shortageZones": [
    {
      "id": "demand-district-창전동",
      "name": "창전동 주차부족 구역",
      "type": "demand",
      "lat": 37.28402016428572,
      "lng": 127.44434255714285,
      "radiusMeters": 520,
      "area": "창전동",
      "shortageScore": 1260,
      "nearbyParkingSpaces": 0,
      "demandIndex": 126
    },
    {
      "id": "demand-school-child-22",
      "name": "이천송정초교 인근 주차부족",
      "type": "demand",
      "lat": 37.29418369,
      "lng": 127.4333763,
      "radiusMeters": 520,
      "area": "기타",
      "shortageScore": 1033,
      "nearbyParkingSpaces": 0,
      "demandIndex": 62
    },
    {
      "id": "demand-school-child-27",
      "name": "증포초교 인근 주차부족",
      "type": "demand",
      "lat": 37.2941947,
      "lng": 127.4571713,
      "radiusMeters": 520,
      "area": "기타",
      "shortageScore": 1033,
      "nearbyParkingSpaces": 0,
      "demandIndex": 62
    },
    {
      "id": "demand-school-child-30",
      "name": "한내초교 인근 주차부족",
      "type": "demand",
      "lat": 37.29041031,
      "lng": 127.4615308,
      "radiusMeters": 520,
      "area": "기타",
      "shortageScore": 1033,
      "nearbyParkingSpaces": 0,
      "demandIndex": 62
    },
    {
      "id": "demand-district-안흥동",
      "name": "안흥동 주차부족 구역",
      "type": "demand",
      "lat": 37.27762976917501,
      "lng": 127.46009285000001,
      "radiusMeters": 520,
      "area": "안흥동",
      "shortageScore": 960,
      "nearbyParkingSpaces": 0,
      "demandIndex": 96
    },
    {
      "id": "demand-school-child-1",
      "name": "나래초교 인근 주차부족",
      "type": "demand",
      "lat": 37.16993358,
      "lng": 127.5877636,
      "radiusMeters": 508,
      "area": "장호원읍",
      "shortageScore": 833,
      "nearbyParkingSpaces": 0,
      "demandIndex": 50
    },
    {
      "id": "demand-school-child-2",
      "name": "대서초교 인근 주차부족",
      "type": "demand",
      "lat": 37.11354416,
      "lng": 127.5759988,
      "radiusMeters": 508,
      "area": "장호원읍",
      "shortageScore": 833,
      "nearbyParkingSpaces": 0,
      "demandIndex": 50
    },
    {
      "id": "demand-school-child-3",
      "name": "대월초교 인근 주차부족",
      "type": "demand",
      "lat": 37.22373609,
      "lng": 127.4928014,
      "radiusMeters": 508,
      "area": "기타",
      "shortageScore": 833,
      "nearbyParkingSpaces": 0,
      "demandIndex": 50
    },
    {
      "id": "demand-school-child-4",
      "name": "도암초교 인근 주차부족",
      "type": "demand",
      "lat": 37.31859142,
      "lng": 127.4427741,
      "radiusMeters": 508,
      "area": "신둔면",
      "shortageScore": 833,
      "nearbyParkingSpaces": 0,
      "demandIndex": 50
    },
    {
      "id": "demand-school-child-5",
      "name": "도지초교 인근 주차부족",
      "type": "demand",
      "lat": 37.3084025,
      "lng": 127.4823129,
      "radiusMeters": 508,
      "area": "백사면",
      "shortageScore": 833,
      "nearbyParkingSpaces": 0,
      "demandIndex": 50
    },
    {
      "id": "demand-school-child-8",
      "name": "부발초교 인근 주차부족",
      "type": "demand",
      "lat": 37.28664819,
      "lng": 127.4887298,
      "radiusMeters": 508,
      "area": "부발읍",
      "shortageScore": 833,
      "nearbyParkingSpaces": 0,
      "demandIndex": 50
    },
    {
      "id": "demand-school-child-10",
      "name": "설성초교 인근 주차부족",
      "type": "demand",
      "lat": 37.11011014,
      "lng": 127.5374462,
      "radiusMeters": 508,
      "area": "기타",
      "shortageScore": 833,
      "nearbyParkingSpaces": 0,
      "demandIndex": 50
    },
    {
      "id": "demand-school-child-11",
      "name": "송곡초교 인근 주차부족",
      "type": "demand",
      "lat": 37.15241874,
      "lng": 127.4839411,
      "radiusMeters": 508,
      "area": "모가면",
      "shortageScore": 833,
      "nearbyParkingSpaces": 0,
      "demandIndex": 50
    },
    {
      "id": "demand-school-child-13",
      "name": "신하초교 인근 주차부족",
      "type": "demand",
      "lat": 37.26109025,
      "lng": 127.4792851,
      "radiusMeters": 508,
      "area": "부발읍",
      "shortageScore": 833,
      "nearbyParkingSpaces": 0,
      "demandIndex": 50
    },
    {
      "id": "demand-school-child-16",
      "name": "율면초교 인근 주차부족",
      "type": "demand",
      "lat": 37.08769894,
      "lng": 127.5425098,
      "radiusMeters": 508,
      "area": "율면",
      "shortageScore": 833,
      "nearbyParkingSpaces": 0,
      "demandIndex": 50
    },
    {
      "id": "demand-school-child-17",
      "name": "이천가산초교 인근 주차부족",
      "type": "demand",
      "lat": 37.2416133,
      "lng": 127.5178592,
      "radiusMeters": 508,
      "area": "부발읍",
      "shortageScore": 833,
      "nearbyParkingSpaces": 0,
      "demandIndex": 50
    },
    {
      "id": "demand-school-child-19",
      "name": "이천단월초교 인근 주차부족",
      "type": "demand",
      "lat": 37.22700348,
      "lng": 127.4522059,
      "radiusMeters": 508,
      "area": "기타",
      "shortageScore": 833,
      "nearbyParkingSpaces": 0,
      "demandIndex": 50
    },
    {
      "id": "demand-school-child-20",
      "name": "이천매곡초교 인근 주차부족",
      "type": "demand",
      "lat": 37.21483214,
      "lng": 127.3944149,
      "radiusMeters": 508,
      "area": "기타",
      "shortageScore": 833,
      "nearbyParkingSpaces": 0,
      "demandIndex": 50
    },
    {
      "id": "demand-school-child-24",
      "name": "이황초교 인근 주차부족",
      "type": "demand",
      "lat": 37.14560869,
      "lng": 127.5877192,
      "radiusMeters": 508,
      "area": "장호원읍",
      "shortageScore": 833,
      "nearbyParkingSpaces": 0,
      "demandIndex": 50
    },
    {
      "id": "demand-school-child-25",
      "name": "장천초교 인근 주차부족",
      "type": "demand",
      "lat": 37.14575495,
      "lng": 127.5283315,
      "radiusMeters": 508,
      "area": "기타",
      "shortageScore": 833,
      "nearbyParkingSpaces": 0,
      "demandIndex": 50
    },
    {
      "id": "demand-school-child-28",
      "name": "진가초교 인근 주차부족",
      "type": "demand",
      "lat": 37.17474613,
      "lng": 127.4792165,
      "radiusMeters": 508,
      "area": "모가면",
      "shortageScore": 833,
      "nearbyParkingSpaces": 2,
      "demandIndex": 50
    },
    {
      "id": "demand-school-child-29",
      "name": "표교초교 인근 주차부족",
      "type": "demand",
      "lat": 37.25672047,
      "lng": 127.4058426,
      "radiusMeters": 508,
      "area": "마장면",
      "shortageScore": 833,
      "nearbyParkingSpaces": 0,
      "demandIndex": 50
    },
    {
      "id": "demand-school-child-31",
      "name": "호법초교 인근 주차부족",
      "type": "demand",
      "lat": 37.22452827,
      "lng": 127.4264713,
      "radiusMeters": 508,
      "area": "기타",
      "shortageScore": 833,
      "nearbyParkingSpaces": 0,
      "demandIndex": 50
    },
    {
      "id": "demand-district-모가면",
      "name": "모가면 주차부족 구역",
      "type": "demand",
      "lat": 37.163582435,
      "lng": 127.4815788,
      "radiusMeters": 505,
      "area": "모가면",
      "shortageScore": 820,
      "nearbyParkingSpaces": 2,
      "demandIndex": 82
    },
    {
      "id": "demand-school-child-7",
      "name": "백사초교 인근 주차부족",
      "type": "demand",
      "lat": 37.33888982,
      "lng": 127.4905347,
      "radiusMeters": 342,
      "area": "백사면",
      "shortageScore": 167,
      "nearbyParkingSpaces": 30,
      "demandIndex": 50
    },
    {
      "id": "demand-district-마장면",
      "name": "마장면 주차부족 구역",
      "type": "demand",
      "lat": 37.251690108775,
      "lng": 127.36879930697499,
      "radiusMeters": 333,
      "area": "마장면",
      "shortageScore": 131,
      "nearbyParkingSpaces": 96,
      "demandIndex": 126
    },
    {
      "id": "demand-school-child-6",
      "name": "마장초교 인근 주차부족",
      "type": "demand",
      "lat": 37.24714546,
      "lng": 127.3581646,
      "radiusMeters": 331,
      "area": "마장면",
      "shortageScore": 122,
      "nearbyParkingSpaces": 41,
      "demandIndex": 50
    },
    {
      "id": "demand-school-child-21",
      "name": "이천사동초교 인근 주차부족",
      "type": "demand",
      "lat": 37.24158694,
      "lng": 127.4874851,
      "radiusMeters": 331,
      "area": "기타",
      "shortageScore": 122,
      "nearbyParkingSpaces": 41,
      "demandIndex": 50
    }
  ]
}